{
    "substations": [
        {
            "id": "SS001",
            "name": "Parkerchester Law data",
            "status": "Operational",
            "coordinates": [
                {
                    "lat": 0.059218,
                    "lng": 108.234121
                }
            ],
            "lastMaintenance": "2022-03-22",
            "nextMaintenance": "2025-11-07",
            "capacity": 53,
            "voltage": 6
        },
        {
            "id": "SS002",
            "name": "Roberttown Democratic data",
            "status": "Development",
            "coordinates": [
                {
                    "lat": 0.321962,
                    "lng": 127.745049
                }
            ],
            "lastMaintenance": "2022-03-12",
            "nextMaintenance": "2027-07-15",
            "capacity": 99,
            "voltage": 45
        },
        {
            "id": "SS003",
            "name": "East Christopherfort Care data",
            "status": "Proposal",
            "coordinates": [
                {
                    "lat": -6.565867,
                    "lng": 134.989555
                }
            ],
            "lastMaintenance": "2021-02-22",
            "nextMaintenance": "2027-01-17",
            "capacity": 17,
            "voltage": 96
        },
        {
            "id": "SS004",
            "name": "Lake Randyfurt High data",
            "status": "Abandoned",
            "coordinates": [
                {
                    "lat": 4.632476,
                    "lng": 100.825851
                }
            ],
            "lastMaintenance": "2022-08-23",
            "nextMaintenance": "2027-11-11",
            "capacity": 53,
            "voltage": 10
        },
        {
            "id": "SS005",
            "name": "Port Susanport Director data",
            "status": "Proposal",
            "coordinates": [
                {
                    "lat": -5.3418,
                    "lng": 128.603541
                }
            ],
            "lastMaintenance": "2020-02-14",
            "nextMaintenance": "2026-03-03",
            "capacity": 3,
            "voltage": 40
        },
        {
            "id": "SS006",
            "name": "Michellebury Throughout data",
            "status": "Development",
            "coordinates": [
                {
                    "lat": -2.329068,
                    "lng": 140.296957
                }
            ],
            "lastMaintenance": "2024-04-19",
            "nextMaintenance": "2027-02-13",
            "capacity": 42,
            "voltage": 42
        },
        {
            "id": "SS007",
            "name": "Clarencehaven How data",
            "status": "Development",
            "coordinates": [
                {
                    "lat": -6.56256,
                    "lng": 103.318363
                }
            ],
            "lastMaintenance": "2020-01-07",
            "nextMaintenance": "2024-12-22",
            "capacity": 37,
            "voltage": 65
        },
        {
            "id": "SS008",
            "name": "Mcmillanberg Treat data",
            "status": "Operational",
            "coordinates": [
                {
                    "lat": -9.773532,
                    "lng": 103.62795
                }
            ],
            "lastMaintenance": "2023-06-11",
            "nextMaintenance": "2026-09-13",
            "capacity": 96,
            "voltage": 65
        },
        {
            "id": "SS009",
            "name": "Lake Scott He data",
            "status": "Abandoned",
            "coordinates": [
                {
                    "lat": 3.738419,
                    "lng": 109.396643
                }
            ],
            "lastMaintenance": "2022-05-11",
            "nextMaintenance": "2028-04-21",
            "capacity": 31,
            "voltage": 27
        },
        {
            "id": "SS010",
            "name": "Crawfordtown Meeting data",
            "status": "Proposal",
            "coordinates": [
                {
                    "lat": 3.475872,
                    "lng": 112.267572
                }
            ],
            "lastMaintenance": "2021-11-10",
            "nextMaintenance": "2027-02-06",
            "capacity": 30,
            "voltage": 1
        },
        {
            "id": "SS011",
            "name": "Port Sarah Ok data",
            "status": "Abandoned",
            "coordinates": [
                {
                    "lat": 3.807705,
                    "lng": 134.682104
                }
            ],
            "lastMaintenance": "2024-02-14",
            "nextMaintenance": "2025-06-06",
            "capacity": 2,
            "voltage": 4
        },
        {
            "id": "SS012",
            "name": "Lake Justinchester Reality data",
            "status": "Development",
            "coordinates": [
                {
                    "lat": 5.971913,
                    "lng": 104.621236
                }
            ],
            "lastMaintenance": "2023-01-13",
            "nextMaintenance": "2027-04-03",
            "capacity": 82,
            "voltage": 91
        },
        {
            "id": "SS013",
            "name": "East Robin Where data",
            "status": "Development",
            "coordinates": [
                {
                    "lat": 4.155641,
                    "lng": 99.725678
                }
            ],
            "lastMaintenance": "2023-06-26",
            "nextMaintenance": "2026-11-28",
            "capacity": 71,
            "voltage": 43
        },
        {
            "id": "SS014",
            "name": "Masonburgh Fact data",
            "status": "Proposal",
            "coordinates": [
                {
                    "lat": 3.142325,
                    "lng": 118.945579
                }
            ],
            "lastMaintenance": "2021-03-02",
            "nextMaintenance": "2029-10-07",
            "capacity": 78,
            "voltage": 22
        },
        {
            "id": "SS015",
            "name": "Timothyberg Billion data",
            "status": "Development",
            "coordinates": [
                {
                    "lat": 2.68224,
                    "lng": 110.846855
                }
            ],
            "lastMaintenance": "2024-07-02",
            "nextMaintenance": "2026-09-22",
            "capacity": 82,
            "voltage": 98
        },
        {
            "id": "SS016",
            "name": "Patriciafurt Friend data",
            "status": "Abandoned",
            "coordinates": [
                {
                    "lat": 0.413719,
                    "lng": 130.559014
                }
            ],
            "lastMaintenance": "2024-10-26",
            "nextMaintenance": "2025-03-03",
            "capacity": 92,
            "voltage": 10
        },
        {
            "id": "SS017",
            "name": "Rachelville Sit data",
            "status": "Operational",
            "coordinates": [
                {
                    "lat": 0.027928,
                    "lng": 120.487576
                }
            ],
            "lastMaintenance": "2020-07-14",
            "nextMaintenance": "2026-08-01",
            "capacity": 67,
            "voltage": 34
        },
        {
            "id": "SS018",
            "name": "Johnland Available data",
            "status": "Development",
            "coordinates": [
                {
                    "lat": -8.673555,
                    "lng": 119.872813
                }
            ],
            "lastMaintenance": "2022-04-08",
            "nextMaintenance": "2028-10-04",
            "capacity": 93,
            "voltage": 93
        },
        {
            "id": "SS019",
            "name": "Aaronmouth Social data",
            "status": "Abandoned",
            "coordinates": [
                {
                    "lat": 0.472839,
                    "lng": 115.439506
                }
            ],
            "lastMaintenance": "2024-04-19",
            "nextMaintenance": "2025-10-30",
            "capacity": 75,
            "voltage": 78
        },
        {
            "id": "SS020",
            "name": "Dianeburgh Walk data",
            "status": "Development",
            "coordinates": [
                {
                    "lat": -8.118046,
                    "lng": 108.38643
                }
            ],
            "lastMaintenance": "2024-08-05",
            "nextMaintenance": "2029-01-16",
            "capacity": 42,
            "voltage": 67
        },
        {
            "id": "SS021",
            "name": "Richardsonborough Between data",
            "status": "Development",
            "coordinates": [
                {
                    "lat": -8.05704,
                    "lng": 109.973481
                }
            ],
            "lastMaintenance": "2024-09-27",
            "nextMaintenance": "2026-01-06",
            "capacity": 40,
            "voltage": 73
        },
        {
            "id": "SS022",
            "name": "Port Stephanieside Food data",
            "status": "Development",
            "coordinates": [
                {
                    "lat": -6.538759,
                    "lng": 109.857888
                }
            ],
            "lastMaintenance": "2023-04-29",
            "nextMaintenance": "2025-02-21",
            "capacity": 90,
            "voltage": 33
        },
        {
            "id": "SS023",
            "name": "South Hannahburgh No data",
            "status": "Operational",
            "coordinates": [
                {
                    "lat": 2.936234,
                    "lng": 125.421896
                }
            ],
            "lastMaintenance": "2020-08-29",
            "nextMaintenance": "2027-05-04",
            "capacity": 42,
            "voltage": 48
        },
        {
            "id": "SS024",
            "name": "Carrton School data",
            "status": "Proposal",
            "coordinates": [
                {
                    "lat": -2.833467,
                    "lng": 102.651315
                }
            ],
            "lastMaintenance": "2024-07-14",
            "nextMaintenance": "2028-06-17",
            "capacity": 33,
            "voltage": 84
        },
        {
            "id": "SS025",
            "name": "Porterfort Thousand data",
            "status": "Abandoned",
            "coordinates": [
                {
                    "lat": 5.113211,
                    "lng": 110.897839
                }
            ],
            "lastMaintenance": "2023-05-14",
            "nextMaintenance": "2027-04-26",
            "capacity": 33,
            "voltage": 27
        },
        {
            "id": "SS026",
            "name": "South Renee Expert data",
            "status": "Abandoned",
            "coordinates": [
                {
                    "lat": -7.76444,
                    "lng": 97.788207
                }
            ],
            "lastMaintenance": "2020-04-27",
            "nextMaintenance": "2026-02-01",
            "capacity": 80,
            "voltage": 32
        },
        {
            "id": "SS027",
            "name": "Port Tinaberg List data",
            "status": "Development",
            "coordinates": [
                {
                    "lat": -3.51646,
                    "lng": 114.662833
                }
            ],
            "lastMaintenance": "2020-05-20",
            "nextMaintenance": "2028-03-14",
            "capacity": 76,
            "voltage": 99
        },
        {
            "id": "SS028",
            "name": "Lake Ericafort As data",
            "status": "Abandoned",
            "coordinates": [
                {
                    "lat": -0.185371,
                    "lng": 140.053824
                }
            ],
            "lastMaintenance": "2023-12-19",
            "nextMaintenance": "2025-08-31",
            "capacity": 15,
            "voltage": 72
        },
        {
            "id": "SS029",
            "name": "Gardnerfort Billion data",
            "status": "Proposal",
            "coordinates": [
                {
                    "lat": -9.663262,
                    "lng": 134.888445
                }
            ],
            "lastMaintenance": "2022-09-03",
            "nextMaintenance": "2025-05-25",
            "capacity": 14,
            "voltage": 16
        },
        {
            "id": "SS030",
            "name": "Josephport Lose data",
            "status": "Proposal",
            "coordinates": [
                {
                    "lat": -3.945926,
                    "lng": 127.694407
                }
            ],
            "lastMaintenance": "2023-07-21",
            "nextMaintenance": "2025-07-22",
            "capacity": 41,
            "voltage": 54
        },
        {
            "id": "SS031",
            "name": "South Karenburgh President data",
            "status": "Proposal",
            "coordinates": [
                {
                    "lat": -5.215939,
                    "lng": 112.899157
                }
            ],
            "lastMaintenance": "2020-01-08",
            "nextMaintenance": "2027-04-08",
            "capacity": 28,
            "voltage": 1
        },
        {
            "id": "SS032",
            "name": "Rosaleschester Most data",
            "status": "Abandoned",
            "coordinates": [
                {
                    "lat": 2.323582,
                    "lng": 120.132984
                }
            ],
            "lastMaintenance": "2023-07-24",
            "nextMaintenance": "2029-09-14",
            "capacity": 88,
            "voltage": 72
        },
        {
            "id": "SS033",
            "name": "Johnsonchester Price data",
            "status": "Development",
            "coordinates": [
                {
                    "lat": -6.854687,
                    "lng": 113.050222
                }
            ],
            "lastMaintenance": "2023-11-09",
            "nextMaintenance": "2026-06-18",
            "capacity": 9,
            "voltage": 31
        },
        {
            "id": "SS034",
            "name": "East Brian Language data",
            "status": "Operational",
            "coordinates": [
                {
                    "lat": 3.235582,
                    "lng": 119.519536
                }
            ],
            "lastMaintenance": "2020-10-09",
            "nextMaintenance": "2026-04-13",
            "capacity": 2,
            "voltage": 27
        },
        {
            "id": "SS035",
            "name": "Karenchester Man data",
            "status": "Proposal",
            "coordinates": [
                {
                    "lat": 3.691348,
                    "lng": 117.616959
                }
            ],
            "lastMaintenance": "2023-08-31",
            "nextMaintenance": "2025-12-19",
            "capacity": 65,
            "voltage": 94
        },
        {
            "id": "SS036",
            "name": "East Allison Coach data",
            "status": "Proposal",
            "coordinates": [
                {
                    "lat": -4.716019,
                    "lng": 118.523952
                }
            ],
            "lastMaintenance": "2023-03-12",
            "nextMaintenance": "2025-12-25",
            "capacity": 32,
            "voltage": 36
        },
        {
            "id": "SS037",
            "name": "Lake Michael Next data",
            "status": "Proposal",
            "coordinates": [
                {
                    "lat": -6.916719,
                    "lng": 110.886276
                }
            ],
            "lastMaintenance": "2022-04-11",
            "nextMaintenance": "2025-06-26",
            "capacity": 14,
            "voltage": 96
        },
        {
            "id": "SS038",
            "name": "East Erinside Even data",
            "status": "Operational",
            "coordinates": [
                {
                    "lat": -7.966427,
                    "lng": 120.038947
                }
            ],
            "lastMaintenance": "2021-01-12",
            "nextMaintenance": "2029-02-11",
            "capacity": 2,
            "voltage": 40
        },
        {
            "id": "SS039",
            "name": "New Carla Skill data",
            "status": "Operational",
            "coordinates": [
                {
                    "lat": 2.646,
                    "lng": 137.152584
                }
            ],
            "lastMaintenance": "2020-08-07",
            "nextMaintenance": "2028-11-01",
            "capacity": 15,
            "voltage": 78
        },
        {
            "id": "SS040",
            "name": "Turnershire When data",
            "status": "Operational",
            "coordinates": [
                {
                    "lat": 0.610259,
                    "lng": 136.215948
                }
            ],
            "lastMaintenance": "2023-04-12",
            "nextMaintenance": "2027-06-02",
            "capacity": 14,
            "voltage": 54
        },
        {
            "id": "SS041",
            "name": "East Tara Strategy data",
            "status": "Proposal",
            "coordinates": [
                {
                    "lat": -0.951914,
                    "lng": 127.67178
                }
            ],
            "lastMaintenance": "2024-02-28",
            "nextMaintenance": "2025-12-11",
            "capacity": 39,
            "voltage": 40
        },
        {
            "id": "SS042",
            "name": "Bryanburgh Down data",
            "status": "Abandoned",
            "coordinates": [
                {
                    "lat": 0.074331,
                    "lng": 114.166963
                }
            ],
            "lastMaintenance": "2022-07-19",
            "nextMaintenance": "2025-11-27",
            "capacity": 56,
            "voltage": 67
        },
        {
            "id": "SS043",
            "name": "East Andrea Interesting data",
            "status": "Abandoned",
            "coordinates": [
                {
                    "lat": -7.361569,
                    "lng": 122.05836
                }
            ],
            "lastMaintenance": "2024-10-03",
            "nextMaintenance": "2029-01-21",
            "capacity": 68,
            "voltage": 8
        },
        {
            "id": "SS044",
            "name": "Velezshire Worker data",
            "status": "Operational",
            "coordinates": [
                {
                    "lat": -6.106462,
                    "lng": 133.677632
                }
            ],
            "lastMaintenance": "2020-02-10",
            "nextMaintenance": "2027-02-17",
            "capacity": 37,
            "voltage": 2
        },
        {
            "id": "SS045",
            "name": "Josephtown Shake data",
            "status": "Development",
            "coordinates": [
                {
                    "lat": -9.04226,
                    "lng": 108.212629
                }
            ],
            "lastMaintenance": "2024-01-13",
            "nextMaintenance": "2027-08-03",
            "capacity": 92,
            "voltage": 94
        },
        {
            "id": "SS046",
            "name": "West Michaelburgh Nearly data",
            "status": "Proposal",
            "coordinates": [
                {
                    "lat": -1.415527,
                    "lng": 131.603127
                }
            ],
            "lastMaintenance": "2020-04-06",
            "nextMaintenance": "2029-01-09",
            "capacity": 88,
            "voltage": 79
        },
        {
            "id": "SS047",
            "name": "South Susan Could data",
            "status": "Abandoned",
            "coordinates": [
                {
                    "lat": -3.691322,
                    "lng": 109.630503
                }
            ],
            "lastMaintenance": "2020-01-28",
            "nextMaintenance": "2029-02-16",
            "capacity": 48,
            "voltage": 37
        },
        {
            "id": "SS048",
            "name": "Edwardsmouth Score data",
            "status": "Development",
            "coordinates": [
                {
                    "lat": -0.546206,
                    "lng": 104.566094
                }
            ],
            "lastMaintenance": "2024-11-11",
            "nextMaintenance": "2028-09-26",
            "capacity": 6,
            "voltage": 1
        },
        {
            "id": "SS049",
            "name": "West Taylorside Detail data",
            "status": "Abandoned",
            "coordinates": [
                {
                    "lat": -1.043286,
                    "lng": 131.429966
                }
            ],
            "lastMaintenance": "2021-07-25",
            "nextMaintenance": "2028-01-31",
            "capacity": 54,
            "voltage": 80
        },
        {
            "id": "SS050",
            "name": "Pittsborough Standard data",
            "status": "Abandoned",
            "coordinates": [
                {
                    "lat": 2.343585,
                    "lng": 105.748358
                }
            ],
            "lastMaintenance": "2020-04-10",
            "nextMaintenance": "2027-03-22",
            "capacity": 15,
            "voltage": 80
        },
        {
            "id": "SS051",
            "name": "Onealhaven Born data",
            "status": "Proposal",
            "coordinates": [
                {
                    "lat": -2.452595,
                    "lng": 115.270105
                }
            ],
            "lastMaintenance": "2023-11-09",
            "nextMaintenance": "2025-08-14",
            "capacity": 67,
            "voltage": 26
        },
        {
            "id": "SS052",
            "name": "New Kevinfurt Tough data",
            "status": "Development",
            "coordinates": [
                {
                    "lat": -5.516442,
                    "lng": 135.419401
                }
            ],
            "lastMaintenance": "2020-12-13",
            "nextMaintenance": "2028-03-28",
            "capacity": 92,
            "voltage": 44
        },
        {
            "id": "SS053",
            "name": "South Alyssaport School data",
            "status": "Operational",
            "coordinates": [
                {
                    "lat": -4.36815,
                    "lng": 117.116222
                }
            ],
            "lastMaintenance": "2023-05-30",
            "nextMaintenance": "2025-07-01",
            "capacity": 53,
            "voltage": 69
        },
        {
            "id": "SS054",
            "name": "Reedmouth Kitchen data",
            "status": "Operational",
            "coordinates": [
                {
                    "lat": 5.159982,
                    "lng": 125.920831
                }
            ],
            "lastMaintenance": "2020-12-13",
            "nextMaintenance": "2028-02-05",
            "capacity": 7,
            "voltage": 19
        },
        {
            "id": "SS055",
            "name": "West Keith Fact data",
            "status": "Abandoned",
            "coordinates": [
                {
                    "lat": -1.172966,
                    "lng": 123.158026
                }
            ],
            "lastMaintenance": "2024-04-06",
            "nextMaintenance": "2028-07-07",
            "capacity": 88,
            "voltage": 67
        },
        {
            "id": "SS056",
            "name": "Port Lisaland Before data",
            "status": "Operational",
            "coordinates": [
                {
                    "lat": -0.012718,
                    "lng": 106.369022
                }
            ],
            "lastMaintenance": "2022-03-01",
            "nextMaintenance": "2028-05-22",
            "capacity": 66,
            "voltage": 3
        },
        {
            "id": "SS057",
            "name": "West Anthonyshire Finally data",
            "status": "Operational",
            "coordinates": [
                {
                    "lat": 5.711778,
                    "lng": 140.688932
                }
            ],
            "lastMaintenance": "2022-01-20",
            "nextMaintenance": "2025-07-08",
            "capacity": 0,
            "voltage": 58
        },
        {
            "id": "SS058",
            "name": "Jenkinschester Court data",
            "status": "Proposal",
            "coordinates": [
                {
                    "lat": 5.135869,
                    "lng": 136.343225
                }
            ],
            "lastMaintenance": "2024-10-10",
            "nextMaintenance": "2025-12-25",
            "capacity": 35,
            "voltage": 30
        },
        {
            "id": "SS059",
            "name": "Austinfurt Effect data",
            "status": "Operational",
            "coordinates": [
                {
                    "lat": -6.470075,
                    "lng": 95.563733
                }
            ],
            "lastMaintenance": "2022-01-01",
            "nextMaintenance": "2026-04-07",
            "capacity": 29,
            "voltage": 37
        },
        {
            "id": "SS060",
            "name": "Michaelfort Discuss data",
            "status": "Abandoned",
            "coordinates": [
                {
                    "lat": -6.20286,
                    "lng": 135.196444
                }
            ],
            "lastMaintenance": "2023-08-25",
            "nextMaintenance": "2026-06-06",
            "capacity": 99,
            "voltage": 74
        },
        {
            "id": "SS061",
            "name": "Robertsville Use data",
            "status": "Abandoned",
            "coordinates": [
                {
                    "lat": -8.073635,
                    "lng": 115.687548
                }
            ],
            "lastMaintenance": "2020-03-14",
            "nextMaintenance": "2028-03-11",
            "capacity": 98,
            "voltage": 31
        },
        {
            "id": "SS062",
            "name": "Sloanbury Join data",
            "status": "Abandoned",
            "coordinates": [
                {
                    "lat": 1.60314,
                    "lng": 122.975497
                }
            ],
            "lastMaintenance": "2024-08-21",
            "nextMaintenance": "2027-12-16",
            "capacity": 20,
            "voltage": 19
        },
        {
            "id": "SS063",
            "name": "Lambertburgh At data",
            "status": "Development",
            "coordinates": [
                {
                    "lat": 2.705962,
                    "lng": 106.015484
                }
            ],
            "lastMaintenance": "2020-08-10",
            "nextMaintenance": "2027-01-24",
            "capacity": 62,
            "voltage": 57
        },
        {
            "id": "SS064",
            "name": "Oconnorhaven Market data",
            "status": "Operational",
            "coordinates": [
                {
                    "lat": 2.092055,
                    "lng": 115.713678
                }
            ],
            "lastMaintenance": "2021-07-12",
            "nextMaintenance": "2026-02-11",
            "capacity": 30,
            "voltage": 71
        },
        {
            "id": "SS065",
            "name": "Hartton Mission data",
            "status": "Proposal",
            "coordinates": [
                {
                    "lat": -4.460426,
                    "lng": 121.518749
                }
            ],
            "lastMaintenance": "2022-01-14",
            "nextMaintenance": "2028-10-22",
            "capacity": 49,
            "voltage": 4
        },
        {
            "id": "SS066",
            "name": "Caroltown Tell data",
            "status": "Abandoned",
            "coordinates": [
                {
                    "lat": 0.949712,
                    "lng": 119.251373
                }
            ],
            "lastMaintenance": "2022-11-05",
            "nextMaintenance": "2025-09-05",
            "capacity": 35,
            "voltage": 40
        },
        {
            "id": "SS067",
            "name": "Brianstad Own data",
            "status": "Development",
            "coordinates": [
                {
                    "lat": 3.829782,
                    "lng": 132.02701
                }
            ],
            "lastMaintenance": "2020-11-10",
            "nextMaintenance": "2028-10-12",
            "capacity": 15,
            "voltage": 87
        },
        {
            "id": "SS068",
            "name": "East Steven Certain data",
            "status": "Proposal",
            "coordinates": [
                {
                    "lat": 4.725435,
                    "lng": 110.039965
                }
            ],
            "lastMaintenance": "2020-11-26",
            "nextMaintenance": "2029-07-07",
            "capacity": 32,
            "voltage": 87
        },
        {
            "id": "SS069",
            "name": "New Kristenside Positive data",
            "status": "Proposal",
            "coordinates": [
                {
                    "lat": -2.298774,
                    "lng": 129.892214
                }
            ],
            "lastMaintenance": "2023-09-03",
            "nextMaintenance": "2026-02-23",
            "capacity": 63,
            "voltage": 52
        },
        {
            "id": "SS070",
            "name": "Greenside Team data",
            "status": "Proposal",
            "coordinates": [
                {
                    "lat": 2.014398,
                    "lng": 124.267511
                }
            ],
            "lastMaintenance": "2021-04-05",
            "nextMaintenance": "2025-02-24",
            "capacity": 94,
            "voltage": 73
        },
        {
            "id": "SS071",
            "name": "Lake Mitchell Want data",
            "status": "Abandoned",
            "coordinates": [
                {
                    "lat": 5.463051,
                    "lng": 112.695216
                }
            ],
            "lastMaintenance": "2022-11-11",
            "nextMaintenance": "2025-03-11",
            "capacity": 59,
            "voltage": 12
        },
        {
            "id": "SS072",
            "name": "New Matthewside This data",
            "status": "Proposal",
            "coordinates": [
                {
                    "lat": 3.394387,
                    "lng": 138.721907
                }
            ],
            "lastMaintenance": "2022-11-18",
            "nextMaintenance": "2027-04-28",
            "capacity": 84,
            "voltage": 74
        },
        {
            "id": "SS073",
            "name": "South Brenda West data",
            "status": "Operational",
            "coordinates": [
                {
                    "lat": -6.012153,
                    "lng": 112.289806
                }
            ],
            "lastMaintenance": "2022-02-13",
            "nextMaintenance": "2028-10-06",
            "capacity": 48,
            "voltage": 8
        },
        {
            "id": "SS074",
            "name": "West Susan Ok data",
            "status": "Development",
            "coordinates": [
                {
                    "lat": -1.358135,
                    "lng": 132.621329
                }
            ],
            "lastMaintenance": "2023-09-02",
            "nextMaintenance": "2029-10-07",
            "capacity": 26,
            "voltage": 18
        },
        {
            "id": "SS075",
            "name": "Rileyfurt Challenge data",
            "status": "Proposal",
            "coordinates": [
                {
                    "lat": 5.080365,
                    "lng": 116.933331
                }
            ],
            "lastMaintenance": "2020-01-06",
            "nextMaintenance": "2027-11-01",
            "capacity": 42,
            "voltage": 2
        },
        {
            "id": "SS076",
            "name": "Port Kevin Exist data",
            "status": "Development",
            "coordinates": [
                {
                    "lat": -4.006717,
                    "lng": 133.743665
                }
            ],
            "lastMaintenance": "2023-05-05",
            "nextMaintenance": "2029-11-01",
            "capacity": 66,
            "voltage": 36
        },
        {
            "id": "SS077",
            "name": "Port Melissa Difference data",
            "status": "Development",
            "coordinates": [
                {
                    "lat": -4.530133,
                    "lng": 116.879114
                }
            ],
            "lastMaintenance": "2023-07-17",
            "nextMaintenance": "2025-11-12",
            "capacity": 78,
            "voltage": 55
        },
        {
            "id": "SS078",
            "name": "West Timothy She data",
            "status": "Abandoned",
            "coordinates": [
                {
                    "lat": -8.15537,
                    "lng": 116.855964
                }
            ],
            "lastMaintenance": "2022-04-24",
            "nextMaintenance": "2028-06-01",
            "capacity": 59,
            "voltage": 11
        },
        {
            "id": "SS079",
            "name": "Snowhaven Bring data",
            "status": "Proposal",
            "coordinates": [
                {
                    "lat": 1.33736,
                    "lng": 104.34859
                }
            ],
            "lastMaintenance": "2022-10-21",
            "nextMaintenance": "2026-10-11",
            "capacity": 85,
            "voltage": 96
        },
        {
            "id": "SS080",
            "name": "Cameronberg Prepare data",
            "status": "Abandoned",
            "coordinates": [
                {
                    "lat": -9.850463,
                    "lng": 113.252411
                }
            ],
            "lastMaintenance": "2021-11-23",
            "nextMaintenance": "2029-01-04",
            "capacity": 43,
            "voltage": 3
        },
        {
            "id": "SS081",
            "name": "Andreamouth Else data",
            "status": "Operational",
            "coordinates": [
                {
                    "lat": 3.926095,
                    "lng": 116.663178
                }
            ],
            "lastMaintenance": "2021-09-10",
            "nextMaintenance": "2029-01-20",
            "capacity": 21,
            "voltage": 100
        },
        {
            "id": "SS082",
            "name": "Andreastad Page data",
            "status": "Abandoned",
            "coordinates": [
                {
                    "lat": 4.183439,
                    "lng": 140.836081
                }
            ],
            "lastMaintenance": "2020-07-22",
            "nextMaintenance": "2029-11-07",
            "capacity": 28,
            "voltage": 23
        },
        {
            "id": "SS083",
            "name": "Nicoleshire Loss data",
            "status": "Proposal",
            "coordinates": [
                {
                    "lat": -7.037336,
                    "lng": 119.808369
                }
            ],
            "lastMaintenance": "2022-12-25",
            "nextMaintenance": "2025-07-14",
            "capacity": 80,
            "voltage": 7
        },
        {
            "id": "SS084",
            "name": "New Jessicafurt Carry data",
            "status": "Abandoned",
            "coordinates": [
                {
                    "lat": -7.137532,
                    "lng": 101.868008
                }
            ],
            "lastMaintenance": "2022-01-07",
            "nextMaintenance": "2027-05-30",
            "capacity": 15,
            "voltage": 15
        },
        {
            "id": "SS085",
            "name": "Lake Donaldfort Such data",
            "status": "Abandoned",
            "coordinates": [
                {
                    "lat": 4.974906,
                    "lng": 102.778189
                }
            ],
            "lastMaintenance": "2023-02-24",
            "nextMaintenance": "2027-09-14",
            "capacity": 72,
            "voltage": 85
        },
        {
            "id": "SS086",
            "name": "New Latoya Else data",
            "status": "Development",
            "coordinates": [
                {
                    "lat": -0.090285,
                    "lng": 139.370596
                }
            ],
            "lastMaintenance": "2021-12-17",
            "nextMaintenance": "2028-04-26",
            "capacity": 41,
            "voltage": 27
        },
        {
            "id": "SS087",
            "name": "West Patricia This data",
            "status": "Proposal",
            "coordinates": [
                {
                    "lat": -2.932645,
                    "lng": 103.746951
                }
            ],
            "lastMaintenance": "2024-10-26",
            "nextMaintenance": "2026-01-06",
            "capacity": 50,
            "voltage": 4
        },
        {
            "id": "SS088",
            "name": "East Johnland Serious data",
            "status": "Operational",
            "coordinates": [
                {
                    "lat": -1.45001,
                    "lng": 138.032166
                }
            ],
            "lastMaintenance": "2022-04-19",
            "nextMaintenance": "2024-12-28",
            "capacity": 22,
            "voltage": 44
        },
        {
            "id": "SS089",
            "name": "Daviston Above data",
            "status": "Abandoned",
            "coordinates": [
                {
                    "lat": -2.496909,
                    "lng": 102.934474
                }
            ],
            "lastMaintenance": "2022-02-06",
            "nextMaintenance": "2025-03-20",
            "capacity": 22,
            "voltage": 50
        },
        {
            "id": "SS090",
            "name": "Port Kelseyland Find data",
            "status": "Development",
            "coordinates": [
                {
                    "lat": -2.03044,
                    "lng": 100.809377
                }
            ],
            "lastMaintenance": "2020-07-21",
            "nextMaintenance": "2028-10-12",
            "capacity": 93,
            "voltage": 59
        },
        {
            "id": "SS091",
            "name": "West Bethchester Last data",
            "status": "Operational",
            "coordinates": [
                {
                    "lat": 0.494347,
                    "lng": 126.268765
                }
            ],
            "lastMaintenance": "2020-01-11",
            "nextMaintenance": "2025-11-17",
            "capacity": 83,
            "voltage": 16
        },
        {
            "id": "SS092",
            "name": "Bretttown Practice data",
            "status": "Operational",
            "coordinates": [
                {
                    "lat": -2.381073,
                    "lng": 96.475031
                }
            ],
            "lastMaintenance": "2023-07-24",
            "nextMaintenance": "2029-01-11",
            "capacity": 71,
            "voltage": 18
        },
        {
            "id": "SS093",
            "name": "Lake Christineside Serious data",
            "status": "Abandoned",
            "coordinates": [
                {
                    "lat": 3.556441,
                    "lng": 104.44388
                }
            ],
            "lastMaintenance": "2024-04-20",
            "nextMaintenance": "2027-01-30",
            "capacity": 80,
            "voltage": 81
        },
        {
            "id": "SS094",
            "name": "Nathanville Identify data",
            "status": "Operational",
            "coordinates": [
                {
                    "lat": -2.330686,
                    "lng": 109.007991
                }
            ],
            "lastMaintenance": "2020-03-22",
            "nextMaintenance": "2028-06-02",
            "capacity": 97,
            "voltage": 20
        },
        {
            "id": "SS095",
            "name": "Port Valerieport Night data",
            "status": "Abandoned",
            "coordinates": [
                {
                    "lat": 0.779163,
                    "lng": 140.474901
                }
            ],
            "lastMaintenance": "2020-11-06",
            "nextMaintenance": "2026-08-17",
            "capacity": 19,
            "voltage": 39
        },
        {
            "id": "SS096",
            "name": "Crawfordland Job data",
            "status": "Operational",
            "coordinates": [
                {
                    "lat": -7.839804,
                    "lng": 116.125336
                }
            ],
            "lastMaintenance": "2023-10-28",
            "nextMaintenance": "2026-08-03",
            "capacity": 70,
            "voltage": 77
        },
        {
            "id": "SS097",
            "name": "Jasonberg Them data",
            "status": "Proposal",
            "coordinates": [
                {
                    "lat": 4.403177,
                    "lng": 138.143236
                }
            ],
            "lastMaintenance": "2023-07-25",
            "nextMaintenance": "2026-07-26",
            "capacity": 46,
            "voltage": 72
        },
        {
            "id": "SS098",
            "name": "Kelleyside Decide data",
            "status": "Development",
            "coordinates": [
                {
                    "lat": -1.79158,
                    "lng": 134.26889
                }
            ],
            "lastMaintenance": "2024-03-20",
            "nextMaintenance": "2029-08-24",
            "capacity": 68,
            "voltage": 18
        },
        {
            "id": "SS099",
            "name": "Carpenterstad Full data",
            "status": "Abandoned",
            "coordinates": [
                {
                    "lat": -3.313264,
                    "lng": 99.125312
                }
            ],
            "lastMaintenance": "2020-08-28",
            "nextMaintenance": "2027-04-20",
            "capacity": 1,
            "voltage": 11
        },
        {
            "id": "SS100",
            "name": "New Brianside Contain data",
            "status": "Abandoned",
            "coordinates": [
                {
                    "lat": -9.434809,
                    "lng": 134.531104
                }
            ],
            "lastMaintenance": "2024-03-26",
            "nextMaintenance": "2026-03-18",
            "capacity": 81,
            "voltage": 4
        },
        {
            "id": "SS101",
            "name": "South Staciehaven Next data",
            "status": "Operational",
            "coordinates": [
                {
                    "lat": -2.141331,
                    "lng": 114.352308
                }
            ],
            "lastMaintenance": "2024-01-06",
            "nextMaintenance": "2027-05-29",
            "capacity": 57,
            "voltage": 91
        },
        {
            "id": "SS102",
            "name": "Port Russell Point data",
            "status": "Proposal",
            "coordinates": [
                {
                    "lat": 2.425168,
                    "lng": 132.227236
                }
            ],
            "lastMaintenance": "2023-10-01",
            "nextMaintenance": "2028-10-27",
            "capacity": 86,
            "voltage": 69
        },
        {
            "id": "SS103",
            "name": "Diazbury Where data",
            "status": "Proposal",
            "coordinates": [
                {
                    "lat": 5.920842,
                    "lng": 95.813424
                }
            ],
            "lastMaintenance": "2020-05-07",
            "nextMaintenance": "2026-10-24",
            "capacity": 3,
            "voltage": 6
        },
        {
            "id": "SS104",
            "name": "Port Johnfurt Economy data",
            "status": "Proposal",
            "coordinates": [
                {
                    "lat": 0.820014,
                    "lng": 110.999614
                }
            ],
            "lastMaintenance": "2021-06-11",
            "nextMaintenance": "2029-01-17",
            "capacity": 89,
            "voltage": 70
        },
        {
            "id": "SS105",
            "name": "South Juliefort Such data",
            "status": "Development",
            "coordinates": [
                {
                    "lat": -9.384768,
                    "lng": 105.553795
                }
            ],
            "lastMaintenance": "2024-10-08",
            "nextMaintenance": "2026-08-26",
            "capacity": 98,
            "voltage": 9
        },
        {
            "id": "SS106",
            "name": "North Rodney Structure data",
            "status": "Development",
            "coordinates": [
                {
                    "lat": -2.671484,
                    "lng": 99.656634
                }
            ],
            "lastMaintenance": "2023-11-02",
            "nextMaintenance": "2025-06-07",
            "capacity": 66,
            "voltage": 76
        },
        {
            "id": "SS107",
            "name": "Oliverfurt Hear data",
            "status": "Development",
            "coordinates": [
                {
                    "lat": -8.977971,
                    "lng": 106.39042
                }
            ],
            "lastMaintenance": "2024-02-15",
            "nextMaintenance": "2028-11-09",
            "capacity": 81,
            "voltage": 32
        },
        {
            "id": "SS108",
            "name": "South Jesusfurt Safe data",
            "status": "Operational",
            "coordinates": [
                {
                    "lat": -6.235092,
                    "lng": 119.662296
                }
            ],
            "lastMaintenance": "2022-07-06",
            "nextMaintenance": "2028-04-13",
            "capacity": 59,
            "voltage": 96
        },
        {
            "id": "SS109",
            "name": "West Samuelmouth Find data",
            "status": "Proposal",
            "coordinates": [
                {
                    "lat": -6.558002,
                    "lng": 138.517619
                }
            ],
            "lastMaintenance": "2022-02-07",
            "nextMaintenance": "2028-10-19",
            "capacity": 56,
            "voltage": 63
        },
        {
            "id": "SS110",
            "name": "Port Timothy Without data",
            "status": "Abandoned",
            "coordinates": [
                {
                    "lat": 4.026314,
                    "lng": 113.882385
                }
            ],
            "lastMaintenance": "2020-02-20",
            "nextMaintenance": "2027-12-02",
            "capacity": 65,
            "voltage": 19
        },
        {
            "id": "SS111",
            "name": "Donaldview Their data",
            "status": "Operational",
            "coordinates": [
                {
                    "lat": 1.055807,
                    "lng": 108.794345
                }
            ],
            "lastMaintenance": "2023-05-12",
            "nextMaintenance": "2025-12-23",
            "capacity": 49,
            "voltage": 7
        },
        {
            "id": "SS112",
            "name": "Lake Kristenchester Get data",
            "status": "Abandoned",
            "coordinates": [
                {
                    "lat": -9.340016,
                    "lng": 115.907418
                }
            ],
            "lastMaintenance": "2022-11-06",
            "nextMaintenance": "2028-06-05",
            "capacity": 12,
            "voltage": 46
        },
        {
            "id": "SS113",
            "name": "Michaelfurt Least data",
            "status": "Operational",
            "coordinates": [
                {
                    "lat": -4.846109,
                    "lng": 135.808202
                }
            ],
            "lastMaintenance": "2024-11-07",
            "nextMaintenance": "2028-08-20",
            "capacity": 36,
            "voltage": 79
        },
        {
            "id": "SS114",
            "name": "Smithburgh Relate data",
            "status": "Abandoned",
            "coordinates": [
                {
                    "lat": -3.402909,
                    "lng": 120.672155
                }
            ],
            "lastMaintenance": "2023-11-25",
            "nextMaintenance": "2026-01-18",
            "capacity": 68,
            "voltage": 5
        },
        {
            "id": "SS115",
            "name": "West Brandonside Benefit data",
            "status": "Operational",
            "coordinates": [
                {
                    "lat": -9.832899,
                    "lng": 138.65726
                }
            ],
            "lastMaintenance": "2020-07-23",
            "nextMaintenance": "2025-12-19",
            "capacity": 80,
            "voltage": 92
        },
        {
            "id": "SS116",
            "name": "Roberthaven Watch data",
            "status": "Operational",
            "coordinates": [
                {
                    "lat": 4.246824,
                    "lng": 125.555567
                }
            ],
            "lastMaintenance": "2024-09-29",
            "nextMaintenance": "2025-02-23",
            "capacity": 65,
            "voltage": 20
        },
        {
            "id": "SS117",
            "name": "Linberg Lead data",
            "status": "Abandoned",
            "coordinates": [
                {
                    "lat": -2.760007,
                    "lng": 136.49153
                }
            ],
            "lastMaintenance": "2021-09-08",
            "nextMaintenance": "2029-10-18",
            "capacity": 93,
            "voltage": 1
        },
        {
            "id": "SS118",
            "name": "Huffberg Investment data",
            "status": "Abandoned",
            "coordinates": [
                {
                    "lat": 0.410393,
                    "lng": 112.161563
                }
            ],
            "lastMaintenance": "2023-07-25",
            "nextMaintenance": "2026-12-20",
            "capacity": 18,
            "voltage": 33
        },
        {
            "id": "SS119",
            "name": "Reyesland Already data",
            "status": "Abandoned",
            "coordinates": [
                {
                    "lat": -9.334003,
                    "lng": 100.661585
                }
            ],
            "lastMaintenance": "2021-09-22",
            "nextMaintenance": "2027-12-18",
            "capacity": 42,
            "voltage": 38
        },
        {
            "id": "SS120",
            "name": "East Brucetown Right data",
            "status": "Abandoned",
            "coordinates": [
                {
                    "lat": -3.262997,
                    "lng": 95.312911
                }
            ],
            "lastMaintenance": "2023-09-20",
            "nextMaintenance": "2026-09-02",
            "capacity": 68,
            "voltage": 81
        },
        {
            "id": "SS121",
            "name": "Rachelburgh Able data",
            "status": "Development",
            "coordinates": [
                {
                    "lat": 0.870984,
                    "lng": 104.382651
                }
            ],
            "lastMaintenance": "2021-05-09",
            "nextMaintenance": "2029-09-29",
            "capacity": 34,
            "voltage": 75
        },
        {
            "id": "SS122",
            "name": "Rodriguezland Certain data",
            "status": "Abandoned",
            "coordinates": [
                {
                    "lat": -7.250194,
                    "lng": 120.28576
                }
            ],
            "lastMaintenance": "2022-02-14",
            "nextMaintenance": "2025-03-07",
            "capacity": 12,
            "voltage": 69
        },
        {
            "id": "SS123",
            "name": "Obrienchester Office data",
            "status": "Proposal",
            "coordinates": [
                {
                    "lat": -2.664986,
                    "lng": 128.154413
                }
            ],
            "lastMaintenance": "2020-04-20",
            "nextMaintenance": "2028-01-28",
            "capacity": 88,
            "voltage": 37
        },
        {
            "id": "SS124",
            "name": "West Nathaniel Very data",
            "status": "Proposal",
            "coordinates": [
                {
                    "lat": -1.080047,
                    "lng": 120.411337
                }
            ],
            "lastMaintenance": "2022-12-18",
            "nextMaintenance": "2028-08-11",
            "capacity": 91,
            "voltage": 42
        },
        {
            "id": "SS125",
            "name": "Burgesshaven Oil data",
            "status": "Development",
            "coordinates": [
                {
                    "lat": -6.668622,
                    "lng": 101.276546
                }
            ],
            "lastMaintenance": "2021-04-06",
            "nextMaintenance": "2027-12-31",
            "capacity": 22,
            "voltage": 57
        },
        {
            "id": "SS126",
            "name": "North Robertstad Especially data",
            "status": "Operational",
            "coordinates": [
                {
                    "lat": -6.860974,
                    "lng": 118.153431
                }
            ],
            "lastMaintenance": "2021-06-22",
            "nextMaintenance": "2026-09-25",
            "capacity": 16,
            "voltage": 24
        },
        {
            "id": "SS127",
            "name": "Herreraberg Message data",
            "status": "Proposal",
            "coordinates": [
                {
                    "lat": -5.946928,
                    "lng": 124.908285
                }
            ],
            "lastMaintenance": "2020-08-17",
            "nextMaintenance": "2026-08-19",
            "capacity": 55,
            "voltage": 98
        },
        {
            "id": "SS128",
            "name": "Mooreport Long data",
            "status": "Proposal",
            "coordinates": [
                {
                    "lat": -7.074444,
                    "lng": 140.641763
                }
            ],
            "lastMaintenance": "2023-07-06",
            "nextMaintenance": "2027-09-30",
            "capacity": 68,
            "voltage": 30
        },
        {
            "id": "SS129",
            "name": "West Williamshire Similar data",
            "status": "Operational",
            "coordinates": [
                {
                    "lat": -5.023945,
                    "lng": 99.407633
                }
            ],
            "lastMaintenance": "2020-04-24",
            "nextMaintenance": "2029-06-03",
            "capacity": 94,
            "voltage": 19
        },
        {
            "id": "SS130",
            "name": "Jaimeberg Same data",
            "status": "Operational",
            "coordinates": [
                {
                    "lat": -0.943925,
                    "lng": 104.470151
                }
            ],
            "lastMaintenance": "2023-12-19",
            "nextMaintenance": "2025-02-17",
            "capacity": 84,
            "voltage": 84
        },
        {
            "id": "SS131",
            "name": "Lake Stevenmouth Pattern data",
            "status": "Proposal",
            "coordinates": [
                {
                    "lat": 2.166784,
                    "lng": 126.143513
                }
            ],
            "lastMaintenance": "2022-05-21",
            "nextMaintenance": "2026-08-14",
            "capacity": 0,
            "voltage": 85
        },
        {
            "id": "SS132",
            "name": "Scottport Hard data",
            "status": "Operational",
            "coordinates": [
                {
                    "lat": -6.643288,
                    "lng": 95.965688
                }
            ],
            "lastMaintenance": "2021-09-21",
            "nextMaintenance": "2029-10-01",
            "capacity": 43,
            "voltage": 23
        },
        {
            "id": "SS133",
            "name": "Palmerberg Else data",
            "status": "Abandoned",
            "coordinates": [
                {
                    "lat": 5.9649,
                    "lng": 119.782059
                }
            ],
            "lastMaintenance": "2023-11-23",
            "nextMaintenance": "2028-05-03",
            "capacity": 34,
            "voltage": 88
        },
        {
            "id": "SS134",
            "name": "Thomasburgh Plant data",
            "status": "Proposal",
            "coordinates": [
                {
                    "lat": 5.830556,
                    "lng": 95.780068
                }
            ],
            "lastMaintenance": "2022-02-08",
            "nextMaintenance": "2028-03-16",
            "capacity": 83,
            "voltage": 81
        },
        {
            "id": "SS135",
            "name": "North Erikville Once data",
            "status": "Proposal",
            "coordinates": [
                {
                    "lat": -9.007543,
                    "lng": 106.583284
                }
            ],
            "lastMaintenance": "2020-02-15",
            "nextMaintenance": "2027-10-12",
            "capacity": 92,
            "voltage": 84
        },
        {
            "id": "SS136",
            "name": "Tannerland Material data",
            "status": "Proposal",
            "coordinates": [
                {
                    "lat": -7.813299,
                    "lng": 140.563324
                }
            ],
            "lastMaintenance": "2020-08-18",
            "nextMaintenance": "2028-10-24",
            "capacity": 42,
            "voltage": 37
        },
        {
            "id": "SS137",
            "name": "South Sydney Out data",
            "status": "Proposal",
            "coordinates": [
                {
                    "lat": -7.574909,
                    "lng": 123.832064
                }
            ],
            "lastMaintenance": "2021-08-20",
            "nextMaintenance": "2029-06-13",
            "capacity": 33,
            "voltage": 26
        },
        {
            "id": "SS138",
            "name": "South Kennethfort Far data",
            "status": "Operational",
            "coordinates": [
                {
                    "lat": 0.24729,
                    "lng": 118.509469
                }
            ],
            "lastMaintenance": "2021-08-30",
            "nextMaintenance": "2025-03-07",
            "capacity": 52,
            "voltage": 44
        },
        {
            "id": "SS139",
            "name": "Michaelview Friend data",
            "status": "Development",
            "coordinates": [
                {
                    "lat": -9.769784,
                    "lng": 132.489189
                }
            ],
            "lastMaintenance": "2022-07-17",
            "nextMaintenance": "2028-12-12",
            "capacity": 32,
            "voltage": 89
        },
        {
            "id": "SS140",
            "name": "Lake Ericborough We data",
            "status": "Proposal",
            "coordinates": [
                {
                    "lat": -8.554553,
                    "lng": 124.286883
                }
            ],
            "lastMaintenance": "2024-07-05",
            "nextMaintenance": "2028-07-02",
            "capacity": 14,
            "voltage": 29
        },
        {
            "id": "SS141",
            "name": "Albertland Some data",
            "status": "Abandoned",
            "coordinates": [
                {
                    "lat": -0.720683,
                    "lng": 95.867509
                }
            ],
            "lastMaintenance": "2022-12-11",
            "nextMaintenance": "2029-08-17",
            "capacity": 49,
            "voltage": 93
        },
        {
            "id": "SS142",
            "name": "Johnstonmouth Cut data",
            "status": "Proposal",
            "coordinates": [
                {
                    "lat": -9.792397,
                    "lng": 105.085655
                }
            ],
            "lastMaintenance": "2022-10-26",
            "nextMaintenance": "2029-02-11",
            "capacity": 29,
            "voltage": 47
        },
        {
            "id": "SS143",
            "name": "Jameshaven Never data",
            "status": "Development",
            "coordinates": [
                {
                    "lat": -7.145623,
                    "lng": 115.947163
                }
            ],
            "lastMaintenance": "2020-12-17",
            "nextMaintenance": "2025-12-07",
            "capacity": 43,
            "voltage": 98
        },
        {
            "id": "SS144",
            "name": "Jamesview Their data",
            "status": "Proposal",
            "coordinates": [
                {
                    "lat": -8.062142,
                    "lng": 131.37669
                }
            ],
            "lastMaintenance": "2020-03-04",
            "nextMaintenance": "2027-01-27",
            "capacity": 88,
            "voltage": 8
        },
        {
            "id": "SS145",
            "name": "South Marthaville Moment data",
            "status": "Development",
            "coordinates": [
                {
                    "lat": 3.772535,
                    "lng": 132.431697
                }
            ],
            "lastMaintenance": "2023-03-01",
            "nextMaintenance": "2029-01-02",
            "capacity": 9,
            "voltage": 84
        },
        {
            "id": "SS146",
            "name": "Hoodchester Blood data",
            "status": "Abandoned",
            "coordinates": [
                {
                    "lat": -6.587763,
                    "lng": 104.210846
                }
            ],
            "lastMaintenance": "2022-11-20",
            "nextMaintenance": "2027-10-28",
            "capacity": 51,
            "voltage": 95
        },
        {
            "id": "SS147",
            "name": "New Jacqueline Protect data",
            "status": "Abandoned",
            "coordinates": [
                {
                    "lat": -3.567796,
                    "lng": 96.929474
                }
            ],
            "lastMaintenance": "2024-04-25",
            "nextMaintenance": "2028-07-17",
            "capacity": 27,
            "voltage": 11
        },
        {
            "id": "SS148",
            "name": "North Matthewtown Do data",
            "status": "Abandoned",
            "coordinates": [
                {
                    "lat": 0.435799,
                    "lng": 126.218011
                }
            ],
            "lastMaintenance": "2023-06-25",
            "nextMaintenance": "2027-02-23",
            "capacity": 10,
            "voltage": 2
        },
        {
            "id": "SS149",
            "name": "Kingchester Carry data",
            "status": "Operational",
            "coordinates": [
                {
                    "lat": -9.210942,
                    "lng": 101.76071
                }
            ],
            "lastMaintenance": "2024-06-25",
            "nextMaintenance": "2027-11-30",
            "capacity": 12,
            "voltage": 46
        },
        {
            "id": "SS150",
            "name": "Port Mathew Cold data",
            "status": "Operational",
            "coordinates": [
                {
                    "lat": 4.615216,
                    "lng": 112.472987
                }
            ],
            "lastMaintenance": "2024-01-06",
            "nextMaintenance": "2026-01-21",
            "capacity": 92,
            "voltage": 63
        },
        {
            "id": "SS151",
            "name": "Chungberg Include data",
            "status": "Proposal",
            "coordinates": [
                {
                    "lat": 3.911625,
                    "lng": 109.201397
                }
            ],
            "lastMaintenance": "2020-02-06",
            "nextMaintenance": "2028-04-05",
            "capacity": 40,
            "voltage": 88
        },
        {
            "id": "SS152",
            "name": "Williamberg Fine data",
            "status": "Proposal",
            "coordinates": [
                {
                    "lat": -1.392286,
                    "lng": 103.126255
                }
            ],
            "lastMaintenance": "2020-05-17",
            "nextMaintenance": "2025-12-06",
            "capacity": 79,
            "voltage": 6
        },
        {
            "id": "SS153",
            "name": "Travismouth Cause data",
            "status": "Abandoned",
            "coordinates": [
                {
                    "lat": -0.684598,
                    "lng": 125.128472
                }
            ],
            "lastMaintenance": "2023-02-06",
            "nextMaintenance": "2028-03-15",
            "capacity": 65,
            "voltage": 73
        },
        {
            "id": "SS154",
            "name": "Jarvischester Power data",
            "status": "Proposal",
            "coordinates": [
                {
                    "lat": -4.762917,
                    "lng": 120.048499
                }
            ],
            "lastMaintenance": "2024-01-23",
            "nextMaintenance": "2026-11-06",
            "capacity": 73,
            "voltage": 78
        },
        {
            "id": "SS155",
            "name": "Mayoville Recent data",
            "status": "Development",
            "coordinates": [
                {
                    "lat": -0.395605,
                    "lng": 95.602029
                }
            ],
            "lastMaintenance": "2024-04-24",
            "nextMaintenance": "2026-02-08",
            "capacity": 72,
            "voltage": 59
        },
        {
            "id": "SS156",
            "name": "Elizabethmouth Positive data",
            "status": "Operational",
            "coordinates": [
                {
                    "lat": 4.886475,
                    "lng": 122.653024
                }
            ],
            "lastMaintenance": "2020-11-17",
            "nextMaintenance": "2029-04-11",
            "capacity": 43,
            "voltage": 88
        },
        {
            "id": "SS157",
            "name": "Yolandafurt Address data",
            "status": "Development",
            "coordinates": [
                {
                    "lat": -7.264917,
                    "lng": 97.348146
                }
            ],
            "lastMaintenance": "2022-03-06",
            "nextMaintenance": "2026-08-26",
            "capacity": 70,
            "voltage": 23
        },
        {
            "id": "SS158",
            "name": "Cassieshire Need data",
            "status": "Abandoned",
            "coordinates": [
                {
                    "lat": 1.334271,
                    "lng": 124.94835
                }
            ],
            "lastMaintenance": "2022-04-04",
            "nextMaintenance": "2029-10-11",
            "capacity": 77,
            "voltage": 26
        },
        {
            "id": "SS159",
            "name": "North Ashleehaven Movie data",
            "status": "Development",
            "coordinates": [
                {
                    "lat": -4.830743,
                    "lng": 113.545961
                }
            ],
            "lastMaintenance": "2020-02-22",
            "nextMaintenance": "2025-04-11",
            "capacity": 61,
            "voltage": 67
        },
        {
            "id": "SS160",
            "name": "Chelseyland Wonder data",
            "status": "Development",
            "coordinates": [
                {
                    "lat": 4.047742,
                    "lng": 119.787066
                }
            ],
            "lastMaintenance": "2024-03-08",
            "nextMaintenance": "2025-08-26",
            "capacity": 17,
            "voltage": 32
        },
        {
            "id": "SS161",
            "name": "East Aprilton Fill data",
            "status": "Abandoned",
            "coordinates": [
                {
                    "lat": -2.77262,
                    "lng": 100.040436
                }
            ],
            "lastMaintenance": "2022-10-22",
            "nextMaintenance": "2026-11-12",
            "capacity": 31,
            "voltage": 65
        },
        {
            "id": "SS162",
            "name": "Lake Andrewmouth Pay data",
            "status": "Development",
            "coordinates": [
                {
                    "lat": -8.036037,
                    "lng": 129.398286
                }
            ],
            "lastMaintenance": "2023-05-30",
            "nextMaintenance": "2027-01-20",
            "capacity": 9,
            "voltage": 69
        },
        {
            "id": "SS163",
            "name": "North Alexisside Instead data",
            "status": "Proposal",
            "coordinates": [
                {
                    "lat": -0.723092,
                    "lng": 119.768724
                }
            ],
            "lastMaintenance": "2022-08-17",
            "nextMaintenance": "2026-10-02",
            "capacity": 71,
            "voltage": 17
        },
        {
            "id": "SS164",
            "name": "Kaylaland Dinner data",
            "status": "Development",
            "coordinates": [
                {
                    "lat": 2.620932,
                    "lng": 111.869921
                }
            ],
            "lastMaintenance": "2020-01-20",
            "nextMaintenance": "2028-10-20",
            "capacity": 16,
            "voltage": 96
        },
        {
            "id": "SS165",
            "name": "East Carolynberg Size data",
            "status": "Abandoned",
            "coordinates": [
                {
                    "lat": -1.784268,
                    "lng": 126.729571
                }
            ],
            "lastMaintenance": "2020-10-12",
            "nextMaintenance": "2029-02-08",
            "capacity": 68,
            "voltage": 34
        },
        {
            "id": "SS166",
            "name": "Lake Neilburgh Admit data",
            "status": "Development",
            "coordinates": [
                {
                    "lat": 2.395781,
                    "lng": 117.459228
                }
            ],
            "lastMaintenance": "2020-07-13",
            "nextMaintenance": "2026-12-19",
            "capacity": 38,
            "voltage": 50
        },
        {
            "id": "SS167",
            "name": "Hurleyborough Toward data",
            "status": "Abandoned",
            "coordinates": [
                {
                    "lat": 5.356314,
                    "lng": 95.720219
                }
            ],
            "lastMaintenance": "2020-06-04",
            "nextMaintenance": "2025-09-18",
            "capacity": 29,
            "voltage": 77
        },
        {
            "id": "SS168",
            "name": "Villegasfurt This data",
            "status": "Operational",
            "coordinates": [
                {
                    "lat": 0.182463,
                    "lng": 133.678004
                }
            ],
            "lastMaintenance": "2021-05-31",
            "nextMaintenance": "2026-08-28",
            "capacity": 74,
            "voltage": 72
        },
        {
            "id": "SS169",
            "name": "Gregorymouth Weight data",
            "status": "Abandoned",
            "coordinates": [
                {
                    "lat": 4.326749,
                    "lng": 105.45356
                }
            ],
            "lastMaintenance": "2020-01-04",
            "nextMaintenance": "2026-09-30",
            "capacity": 11,
            "voltage": 69
        },
        {
            "id": "SS170",
            "name": "Coopertown Meeting data",
            "status": "Operational",
            "coordinates": [
                {
                    "lat": -8.255396,
                    "lng": 108.319239
                }
            ],
            "lastMaintenance": "2021-05-07",
            "nextMaintenance": "2025-01-25",
            "capacity": 32,
            "voltage": 90
        },
        {
            "id": "SS171",
            "name": "Carlside Blue data",
            "status": "Operational",
            "coordinates": [
                {
                    "lat": -1.257153,
                    "lng": 104.47307
                }
            ],
            "lastMaintenance": "2022-07-15",
            "nextMaintenance": "2028-07-31",
            "capacity": 27,
            "voltage": 17
        },
        {
            "id": "SS172",
            "name": "South Lindaside Sign data",
            "status": "Development",
            "coordinates": [
                {
                    "lat": -9.712322,
                    "lng": 99.966257
                }
            ],
            "lastMaintenance": "2021-12-03",
            "nextMaintenance": "2027-08-23",
            "capacity": 26,
            "voltage": 59
        },
        {
            "id": "SS173",
            "name": "East Rebecca Recently data",
            "status": "Abandoned",
            "coordinates": [
                {
                    "lat": 0.806943,
                    "lng": 129.012173
                }
            ],
            "lastMaintenance": "2021-10-25",
            "nextMaintenance": "2027-05-08",
            "capacity": 34,
            "voltage": 2
        },
        {
            "id": "SS174",
            "name": "Rossbury Must data",
            "status": "Proposal",
            "coordinates": [
                {
                    "lat": 0.428872,
                    "lng": 118.405858
                }
            ],
            "lastMaintenance": "2021-11-03",
            "nextMaintenance": "2026-03-15",
            "capacity": 80,
            "voltage": 42
        },
        {
            "id": "SS175",
            "name": "Bassshire Season data",
            "status": "Proposal",
            "coordinates": [
                {
                    "lat": 5.768051,
                    "lng": 106.91804
                }
            ],
            "lastMaintenance": "2021-03-13",
            "nextMaintenance": "2025-10-17",
            "capacity": 48,
            "voltage": 40
        },
        {
            "id": "SS176",
            "name": "Dawnville Simple data",
            "status": "Abandoned",
            "coordinates": [
                {
                    "lat": -7.502253,
                    "lng": 105.798604
                }
            ],
            "lastMaintenance": "2023-02-26",
            "nextMaintenance": "2025-10-16",
            "capacity": 85,
            "voltage": 9
        },
        {
            "id": "SS177",
            "name": "Gibsonfurt By data",
            "status": "Abandoned",
            "coordinates": [
                {
                    "lat": 0.106499,
                    "lng": 102.576439
                }
            ],
            "lastMaintenance": "2021-12-04",
            "nextMaintenance": "2025-10-06",
            "capacity": 15,
            "voltage": 38
        },
        {
            "id": "SS178",
            "name": "West Crystalburgh According data",
            "status": "Proposal",
            "coordinates": [
                {
                    "lat": -7.24756,
                    "lng": 126.73699
                }
            ],
            "lastMaintenance": "2024-05-04",
            "nextMaintenance": "2026-08-06",
            "capacity": 52,
            "voltage": 99
        },
        {
            "id": "SS179",
            "name": "New Samantha Maybe data",
            "status": "Operational",
            "coordinates": [
                {
                    "lat": -2.082214,
                    "lng": 132.023742
                }
            ],
            "lastMaintenance": "2021-03-03",
            "nextMaintenance": "2027-08-27",
            "capacity": 48,
            "voltage": 53
        },
        {
            "id": "SS180",
            "name": "West Jeffrey Bed data",
            "status": "Abandoned",
            "coordinates": [
                {
                    "lat": -4.941115,
                    "lng": 140.176905
                }
            ],
            "lastMaintenance": "2020-04-27",
            "nextMaintenance": "2028-07-03",
            "capacity": 17,
            "voltage": 83
        },
        {
            "id": "SS181",
            "name": "Kevinland Training data",
            "status": "Operational",
            "coordinates": [
                {
                    "lat": 2.587034,
                    "lng": 135.85676
                }
            ],
            "lastMaintenance": "2022-01-25",
            "nextMaintenance": "2028-01-13",
            "capacity": 100,
            "voltage": 82
        },
        {
            "id": "SS182",
            "name": "Briannaview Inside data",
            "status": "Development",
            "coordinates": [
                {
                    "lat": 0.825837,
                    "lng": 130.317837
                }
            ],
            "lastMaintenance": "2024-08-06",
            "nextMaintenance": "2028-06-07",
            "capacity": 59,
            "voltage": 22
        },
        {
            "id": "SS183",
            "name": "West Thomas Hundred data",
            "status": "Abandoned",
            "coordinates": [
                {
                    "lat": 4.11812,
                    "lng": 138.250995
                }
            ],
            "lastMaintenance": "2022-01-26",
            "nextMaintenance": "2028-08-21",
            "capacity": 48,
            "voltage": 100
        },
        {
            "id": "SS184",
            "name": "Port Jeffery Challenge data",
            "status": "Operational",
            "coordinates": [
                {
                    "lat": -8.732385,
                    "lng": 131.3292
                }
            ],
            "lastMaintenance": "2021-05-18",
            "nextMaintenance": "2029-02-19",
            "capacity": 50,
            "voltage": 52
        },
        {
            "id": "SS185",
            "name": "Wendyfurt Matter data",
            "status": "Proposal",
            "coordinates": [
                {
                    "lat": 2.731602,
                    "lng": 126.234886
                }
            ],
            "lastMaintenance": "2020-01-29",
            "nextMaintenance": "2025-01-09",
            "capacity": 58,
            "voltage": 95
        },
        {
            "id": "SS186",
            "name": "Lake Thomas Record data",
            "status": "Abandoned",
            "coordinates": [
                {
                    "lat": -0.230041,
                    "lng": 112.433061
                }
            ],
            "lastMaintenance": "2024-09-16",
            "nextMaintenance": "2027-03-04",
            "capacity": 67,
            "voltage": 85
        },
        {
            "id": "SS187",
            "name": "North Randall Opportunity data",
            "status": "Development",
            "coordinates": [
                {
                    "lat": -7.059404,
                    "lng": 109.675431
                }
            ],
            "lastMaintenance": "2022-04-10",
            "nextMaintenance": "2026-07-25",
            "capacity": 27,
            "voltage": 43
        },
        {
            "id": "SS188",
            "name": "New Anthonybury Cell data",
            "status": "Proposal",
            "coordinates": [
                {
                    "lat": -5.907843,
                    "lng": 130.611168
                }
            ],
            "lastMaintenance": "2024-02-10",
            "nextMaintenance": "2027-09-12",
            "capacity": 50,
            "voltage": 27
        },
        {
            "id": "SS189",
            "name": "Adamsville Race data",
            "status": "Operational",
            "coordinates": [
                {
                    "lat": -2.982038,
                    "lng": 114.885877
                }
            ],
            "lastMaintenance": "2020-09-11",
            "nextMaintenance": "2029-09-25",
            "capacity": 52,
            "voltage": 8
        },
        {
            "id": "SS190",
            "name": "Brooksside Really data",
            "status": "Development",
            "coordinates": [
                {
                    "lat": -6.856496,
                    "lng": 122.057178
                }
            ],
            "lastMaintenance": "2023-10-08",
            "nextMaintenance": "2029-01-08",
            "capacity": 85,
            "voltage": 85
        },
        {
            "id": "SS191",
            "name": "Lawrencehaven Scene data",
            "status": "Abandoned",
            "coordinates": [
                {
                    "lat": -9.151269,
                    "lng": 138.809016
                }
            ],
            "lastMaintenance": "2023-02-04",
            "nextMaintenance": "2029-10-14",
            "capacity": 78,
            "voltage": 5
        },
        {
            "id": "SS192",
            "name": "New Rhonda Raise data",
            "status": "Proposal",
            "coordinates": [
                {
                    "lat": 4.771443,
                    "lng": 119.086892
                }
            ],
            "lastMaintenance": "2021-05-30",
            "nextMaintenance": "2026-01-12",
            "capacity": 62,
            "voltage": 34
        },
        {
            "id": "SS193",
            "name": "Marshalltown Wait data",
            "status": "Proposal",
            "coordinates": [
                {
                    "lat": 1.912869,
                    "lng": 104.714233
                }
            ],
            "lastMaintenance": "2020-11-17",
            "nextMaintenance": "2027-03-28",
            "capacity": 6,
            "voltage": 71
        },
        {
            "id": "SS194",
            "name": "Reedhaven Baby data",
            "status": "Proposal",
            "coordinates": [
                {
                    "lat": -6.73679,
                    "lng": 96.787909
                }
            ],
            "lastMaintenance": "2024-01-14",
            "nextMaintenance": "2027-07-06",
            "capacity": 33,
            "voltage": 99
        },
        {
            "id": "SS195",
            "name": "New Joshualand Child data",
            "status": "Operational",
            "coordinates": [
                {
                    "lat": 3.983197,
                    "lng": 131.14034
                }
            ],
            "lastMaintenance": "2020-09-22",
            "nextMaintenance": "2026-04-16",
            "capacity": 41,
            "voltage": 25
        },
        {
            "id": "SS196",
            "name": "South Amanda Open data",
            "status": "Abandoned",
            "coordinates": [
                {
                    "lat": -5.612673,
                    "lng": 130.995301
                }
            ],
            "lastMaintenance": "2021-05-19",
            "nextMaintenance": "2029-07-27",
            "capacity": 59,
            "voltage": 14
        },
        {
            "id": "SS197",
            "name": "Port Anthonystad Reveal data",
            "status": "Abandoned",
            "coordinates": [
                {
                    "lat": 0.401275,
                    "lng": 124.061682
                }
            ],
            "lastMaintenance": "2024-01-28",
            "nextMaintenance": "2027-08-17",
            "capacity": 99,
            "voltage": 70
        },
        {
            "id": "SS198",
            "name": "Lake Patrick Drop data",
            "status": "Proposal",
            "coordinates": [
                {
                    "lat": 2.290862,
                    "lng": 128.176173
                }
            ],
            "lastMaintenance": "2020-12-30",
            "nextMaintenance": "2028-01-06",
            "capacity": 7,
            "voltage": 62
        },
        {
            "id": "SS199",
            "name": "New Juan Leg data",
            "status": "Operational",
            "coordinates": [
                {
                    "lat": -1.573578,
                    "lng": 118.680516
                }
            ],
            "lastMaintenance": "2022-09-15",
            "nextMaintenance": "2025-08-09",
            "capacity": 0,
            "voltage": 60
        },
        {
            "id": "SS200",
            "name": "Lake Eric Loss data",
            "status": "Proposal",
            "coordinates": [
                {
                    "lat": 1.967602,
                    "lng": 100.538912
                }
            ],
            "lastMaintenance": "2022-02-09",
            "nextMaintenance": "2025-04-09",
            "capacity": 85,
            "voltage": 63
        },
        {
            "id": "SS201",
            "name": "Johnton Investment data",
            "status": "Development",
            "coordinates": [
                {
                    "lat": 3.069352,
                    "lng": 135.542968
                }
            ],
            "lastMaintenance": "2024-06-05",
            "nextMaintenance": "2026-11-11",
            "capacity": 67,
            "voltage": 36
        },
        {
            "id": "SS202",
            "name": "East Dianastad Under data",
            "status": "Abandoned",
            "coordinates": [
                {
                    "lat": 3.063771,
                    "lng": 107.168798
                }
            ],
            "lastMaintenance": "2020-05-23",
            "nextMaintenance": "2028-04-24",
            "capacity": 26,
            "voltage": 41
        },
        {
            "id": "SS203",
            "name": "Port Douglas Size data",
            "status": "Development",
            "coordinates": [
                {
                    "lat": -1.911829,
                    "lng": 125.413823
                }
            ],
            "lastMaintenance": "2023-06-06",
            "nextMaintenance": "2025-11-28",
            "capacity": 22,
            "voltage": 65
        },
        {
            "id": "SS204",
            "name": "Port David Run data",
            "status": "Proposal",
            "coordinates": [
                {
                    "lat": -6.531115,
                    "lng": 103.536671
                }
            ],
            "lastMaintenance": "2022-03-30",
            "nextMaintenance": "2027-12-18",
            "capacity": 25,
            "voltage": 57
        },
        {
            "id": "SS205",
            "name": "North Daniel Short data",
            "status": "Development",
            "coordinates": [
                {
                    "lat": -7.916689,
                    "lng": 121.817065
                }
            ],
            "lastMaintenance": "2024-07-13",
            "nextMaintenance": "2029-08-26",
            "capacity": 44,
            "voltage": 67
        },
        {
            "id": "SS206",
            "name": "Lake Tamara Community data",
            "status": "Abandoned",
            "coordinates": [
                {
                    "lat": -7.729139,
                    "lng": 116.149868
                }
            ],
            "lastMaintenance": "2024-10-10",
            "nextMaintenance": "2026-12-10",
            "capacity": 27,
            "voltage": 16
        },
        {
            "id": "SS207",
            "name": "Lake Alison Day data",
            "status": "Abandoned",
            "coordinates": [
                {
                    "lat": 4.262685,
                    "lng": 118.211783
                }
            ],
            "lastMaintenance": "2023-04-29",
            "nextMaintenance": "2028-02-11",
            "capacity": 4,
            "voltage": 15
        },
        {
            "id": "SS208",
            "name": "Jenniferville Bad data",
            "status": "Abandoned",
            "coordinates": [
                {
                    "lat": -2.291375,
                    "lng": 118.333021
                }
            ],
            "lastMaintenance": "2024-02-27",
            "nextMaintenance": "2029-03-24",
            "capacity": 75,
            "voltage": 61
        },
        {
            "id": "SS209",
            "name": "Warrenville Start data",
            "status": "Proposal",
            "coordinates": [
                {
                    "lat": 2.100787,
                    "lng": 127.467791
                }
            ],
            "lastMaintenance": "2023-04-21",
            "nextMaintenance": "2029-09-14",
            "capacity": 39,
            "voltage": 64
        },
        {
            "id": "SS210",
            "name": "Taylorberg Continue data",
            "status": "Proposal",
            "coordinates": [
                {
                    "lat": 0.080746,
                    "lng": 98.045001
                }
            ],
            "lastMaintenance": "2024-10-21",
            "nextMaintenance": "2027-05-19",
            "capacity": 20,
            "voltage": 29
        },
        {
            "id": "SS211",
            "name": "Aprilbury Couple data",
            "status": "Development",
            "coordinates": [
                {
                    "lat": -7.192507,
                    "lng": 100.734143
                }
            ],
            "lastMaintenance": "2020-10-14",
            "nextMaintenance": "2027-01-27",
            "capacity": 45,
            "voltage": 10
        },
        {
            "id": "SS212",
            "name": "Josephhaven Allow data",
            "status": "Operational",
            "coordinates": [
                {
                    "lat": -9.720397,
                    "lng": 120.48741
                }
            ],
            "lastMaintenance": "2021-04-25",
            "nextMaintenance": "2028-07-05",
            "capacity": 82,
            "voltage": 83
        },
        {
            "id": "SS213",
            "name": "New Glennchester Nice data",
            "status": "Abandoned",
            "coordinates": [
                {
                    "lat": 0.233657,
                    "lng": 133.874392
                }
            ],
            "lastMaintenance": "2022-11-02",
            "nextMaintenance": "2025-08-14",
            "capacity": 71,
            "voltage": 61
        },
        {
            "id": "SS214",
            "name": "Wheelerport Wind data",
            "status": "Operational",
            "coordinates": [
                {
                    "lat": 5.618609,
                    "lng": 95.442402
                }
            ],
            "lastMaintenance": "2023-06-24",
            "nextMaintenance": "2029-01-19",
            "capacity": 92,
            "voltage": 18
        },
        {
            "id": "SS215",
            "name": "North Jennifer Will data",
            "status": "Proposal",
            "coordinates": [
                {
                    "lat": 3.789503,
                    "lng": 121.787471
                }
            ],
            "lastMaintenance": "2024-04-27",
            "nextMaintenance": "2026-04-13",
            "capacity": 77,
            "voltage": 2
        },
        {
            "id": "SS216",
            "name": "South Amandabury Unit data",
            "status": "Proposal",
            "coordinates": [
                {
                    "lat": 3.997874,
                    "lng": 125.721171
                }
            ],
            "lastMaintenance": "2021-11-20",
            "nextMaintenance": "2025-03-27",
            "capacity": 13,
            "voltage": 17
        },
        {
            "id": "SS217",
            "name": "New Hollyton Project data",
            "status": "Development",
            "coordinates": [
                {
                    "lat": -6.722618,
                    "lng": 114.43512
                }
            ],
            "lastMaintenance": "2020-09-09",
            "nextMaintenance": "2026-03-12",
            "capacity": 62,
            "voltage": 41
        },
        {
            "id": "SS218",
            "name": "East Nicoleville Know data",
            "status": "Abandoned",
            "coordinates": [
                {
                    "lat": 2.174203,
                    "lng": 98.775523
                }
            ],
            "lastMaintenance": "2021-09-23",
            "nextMaintenance": "2029-01-03",
            "capacity": 69,
            "voltage": 31
        },
        {
            "id": "SS219",
            "name": "Priceview Degree data",
            "status": "Operational",
            "coordinates": [
                {
                    "lat": 5.124937,
                    "lng": 135.787332
                }
            ],
            "lastMaintenance": "2024-10-22",
            "nextMaintenance": "2025-04-22",
            "capacity": 55,
            "voltage": 42
        },
        {
            "id": "SS220",
            "name": "Mooreburgh School data",
            "status": "Proposal",
            "coordinates": [
                {
                    "lat": 1.258088,
                    "lng": 136.755051
                }
            ],
            "lastMaintenance": "2021-06-08",
            "nextMaintenance": "2028-04-08",
            "capacity": 67,
            "voltage": 35
        },
        {
            "id": "SS221",
            "name": "West Susan Region data",
            "status": "Development",
            "coordinates": [
                {
                    "lat": 1.975567,
                    "lng": 120.344248
                }
            ],
            "lastMaintenance": "2021-10-29",
            "nextMaintenance": "2027-04-01",
            "capacity": 76,
            "voltage": 35
        },
        {
            "id": "SS222",
            "name": "South Justinport Minute data",
            "status": "Proposal",
            "coordinates": [
                {
                    "lat": 1.785421,
                    "lng": 125.196894
                }
            ],
            "lastMaintenance": "2022-04-11",
            "nextMaintenance": "2025-01-02",
            "capacity": 64,
            "voltage": 72
        },
        {
            "id": "SS223",
            "name": "New Isaac Hot data",
            "status": "Abandoned",
            "coordinates": [
                {
                    "lat": -2.874883,
                    "lng": 95.084499
                }
            ],
            "lastMaintenance": "2022-08-29",
            "nextMaintenance": "2029-10-03",
            "capacity": 45,
            "voltage": 68
        },
        {
            "id": "SS224",
            "name": "East Dennistown Thought data",
            "status": "Proposal",
            "coordinates": [
                {
                    "lat": -1.275964,
                    "lng": 119.438364
                }
            ],
            "lastMaintenance": "2022-05-05",
            "nextMaintenance": "2027-10-08",
            "capacity": 50,
            "voltage": 11
        },
        {
            "id": "SS225",
            "name": "Port Dawn Federal data",
            "status": "Development",
            "coordinates": [
                {
                    "lat": -9.539245,
                    "lng": 101.302249
                }
            ],
            "lastMaintenance": "2021-01-13",
            "nextMaintenance": "2027-04-04",
            "capacity": 8,
            "voltage": 68
        },
        {
            "id": "SS226",
            "name": "New Sherichester There data",
            "status": "Proposal",
            "coordinates": [
                {
                    "lat": -4.194741,
                    "lng": 140.262364
                }
            ],
            "lastMaintenance": "2020-07-05",
            "nextMaintenance": "2025-05-23",
            "capacity": 36,
            "voltage": 49
        },
        {
            "id": "SS227",
            "name": "Peckland Staff data",
            "status": "Operational",
            "coordinates": [
                {
                    "lat": 4.71445,
                    "lng": 114.762871
                }
            ],
            "lastMaintenance": "2023-09-12",
            "nextMaintenance": "2027-11-15",
            "capacity": 7,
            "voltage": 10
        },
        {
            "id": "SS228",
            "name": "North Stevenborough Leg data",
            "status": "Proposal",
            "coordinates": [
                {
                    "lat": -9.07608,
                    "lng": 126.788882
                }
            ],
            "lastMaintenance": "2024-05-30",
            "nextMaintenance": "2025-02-28",
            "capacity": 17,
            "voltage": 32
        },
        {
            "id": "SS229",
            "name": "West Andrea Run data",
            "status": "Proposal",
            "coordinates": [
                {
                    "lat": 4.01252,
                    "lng": 136.056138
                }
            ],
            "lastMaintenance": "2020-09-26",
            "nextMaintenance": "2024-12-31",
            "capacity": 51,
            "voltage": 30
        },
        {
            "id": "SS230",
            "name": "Lake Joshuafurt Allow data",
            "status": "Development",
            "coordinates": [
                {
                    "lat": 1.163898,
                    "lng": 116.252403
                }
            ],
            "lastMaintenance": "2020-08-13",
            "nextMaintenance": "2027-12-15",
            "capacity": 60,
            "voltage": 9
        },
        {
            "id": "SS231",
            "name": "East Marioton Management data",
            "status": "Development",
            "coordinates": [
                {
                    "lat": -5.751949,
                    "lng": 104.711462
                }
            ],
            "lastMaintenance": "2022-04-16",
            "nextMaintenance": "2025-11-23",
            "capacity": 69,
            "voltage": 51
        },
        {
            "id": "SS232",
            "name": "Port Sharon Lead data",
            "status": "Abandoned",
            "coordinates": [
                {
                    "lat": -2.138982,
                    "lng": 101.250855
                }
            ],
            "lastMaintenance": "2022-03-25",
            "nextMaintenance": "2027-11-02",
            "capacity": 91,
            "voltage": 72
        },